ID,Address,Name,Employees,Latitude,Longitude
1, 3666 21st St San Francisco CA 94114 USA, Madeira,8,37.7566496,-122.4294054
2, 735 Dolores St San Francisco CA 94119 USA, Bready Shop,15,37.7578268,-122.4253924
3, 332 Hill St San Francisco California 94114 USA, Super River,25,37.7558363,-122.4288316
4, 3995 23rd St San Francisco CA 94114 USA, Ben's Shop,10,37.7529648,-122.4317141
5,1056 Sanchez St San Francisco California USA,Sanchez,12,37.7521438,-122.4299768
